[
  {
    "id": "T1",
    "name": "Thomas Street 1",
    "description": "Two-storey parking lot",
    "imageName": "image1",
    "rating": 4.5,
    "lat": -33.882889,
    "long": 151.199611,
    "count": 5,
    "date": "2024-05-14T10:00:00Z",
    "comments": []
  },
  {
    "id": "M1",
    "name": "Mary Ann Street 1",
    "description": "Near the UTS campus",
    "imageName": "image2",
    "rating": 4.0,
    "lat": -33.881278,
    "long": 151.199083,
    "count": 2,
    "date": "2024-05-13T08:30:00Z",
    "comments": []
  },
  {
    "id": "B1",
    "name": "Blackfriars Pi 1",	
    "description": "Solely for students",
    "imageName": "image3",
    "rating": 3.5,
    "lat": -33.885639,
    "long": 151.198083,
    "count": 1,
    "date": "2024-05-12T12:45:00Z",
    "comments": []
  },
  {
    "id": "W1",
    "name": "Wattle Street 1",
    "description": "Only two, sometimes depends on the lucky",
    "imageName": "image2",
    "rating": 4.2,
    "lat": -33.882083,
    "long": 151.197528,
    "count": 2,
    "date": "2024-05-11T11:00:00Z",
    "comments": []
  },
  {
    "id": "T2",
    "name": "Thomas Street 2",
    "description": "Evening only",
    "imageName": "image1",
    "rating": 4.0,
    "lat": -33.883278,
    "long": 151.198694,
    "count": 1,
    "date": "2024-05-10T09:15:00Z",
    "comments": []
  },
  {
    "id": "M2",
    "name": "Mary Ann Street 2",
    "description": "You can always find a spot",
    "imageName": "image2",
    "rating": 3.8,
    "lat": -33.881139,
    "long": 151.199611,
    "count": 1,
    "date": "2024-05-09T15:40:00Z",
    "comments": []
  }
]

